City_ID,City,Cloudiness,Country,Date,Humidity,Lat,Lng,Max Temp,Wind Speed
0,Heilbron,0,ZA,1570573938,19,-27.29,27.97,57.24,9.04
1,Atuona,1,PF,1570574221,73,-9.8,-139.03,79.27,10.99
2,Ushuaia,75,AR,1570574221,80,-54.81,-68.31,44.6,28.86
3,Kapaa,40,US,1570574044,70,22.08,-159.32,84.2,12.75
4,Namibe,98,AO,1570574140,87,-15.19,12.15,67.14,11.77
5,Datong,100,CN,1570574222,45,40.09,113.3,53.82,3.23
6,Hermanus,72,ZA,1570574222,84,-34.42,19.24,57.0,18.14
7,Carnarvon,0,ZA,1570573900,40,-30.97,22.13,55.53,12.37
8,Carmelo,0,UY,1570574223,32,-34.0,-58.28,75.2,6.93
9,Lasa,33,CY,1570574223,82,34.92,32.53,69.8,5.82
10,Yellowknife,90,CA,1570574224,55,62.45,-114.38,33.8,17.22
11,Aklavik,75,CA,1570574004,69,68.22,-135.01,33.8,2.24
12,Saint-Philippe,1,CA,1570574224,54,45.36,-73.48,59.0,5.82
13,Kangaatsiaq,22,GL,1570574225,55,68.31,-53.46,38.43,10.89
14,Tuktoyaktuk,75,CA,1570574225,66,69.44,-133.03,32.0,9.17
15,Aasiaat,16,GL,1570574226,64,68.71,-52.87,28.26,7.1
16,Bethel,40,US,1570574226,76,60.79,-161.76,48.2,12.75
17,Mataura,100,NZ,1570574226,97,-46.19,168.86,51.01,1.01
18,Cape Town,20,ZA,1570574227,72,-33.93,18.42,59.0,5.82
19,Bluff,12,AU,1570574227,21,-23.58,149.07,81.05,9.33
20,Bambous Virieux,40,MU,1570574227,78,-20.34,57.76,71.6,14.99
21,Deputatskiy,100,RU,1570574228,98,69.3,139.9,3.06,2.8
22,New Norfolk,40,AU,1570574228,58,-42.78,147.06,55.99,6.93
23,Barcelos,61,BR,1570574229,87,-0.97,-62.93,76.21,1.09
24,Vilhena,40,BR,1570574229,78,-12.74,-60.15,71.6,12.75
25,Kahului,20,US,1570574230,51,20.89,-156.47,86.0,6.93
26,Maicao,92,CO,1570574230,72,11.38,-72.24,85.59,17.6
27,Puerto Ayora,20,EC,1570574230,60,-0.74,-90.35,75.2,20.8
28,Kattivakkam,40,IN,1570574231,83,13.22,80.32,82.99,10.92
29,Nawada,20,IN,1570574231,94,24.89,85.55,75.2,1.1
30,Cururupu,95,BR,1570574232,89,-1.82,-44.87,72.99,3.06
31,Hobart,40,AU,1570574144,58,-42.88,147.33,55.99,6.93
32,Along,98,IN,1570574232,98,28.17,94.8,65.01,1.78
33,Nefteyugansk,0,RU,1570574233,86,61.09,72.61,37.4,6.71
34,Poum,8,MK,1570574233,91,41.28,20.71,44.96,3.42
35,Nanyuki,17,KE,1570574233,86,0.01,37.07,57.35,8.9
36,Nelson Bay,75,AU,1570574234,51,-32.72,152.14,61.0,14.99
37,Comodoro Rivadavia,40,AR,1570574234,44,-45.87,-67.48,59.0,8.05
38,Rikitea,100,PF,1570574234,87,-23.12,-134.97,66.71,11.3
39,Faanui,66,PF,1570574235,84,-16.48,-151.75,77.09,23.55
40,Port Alfred,0,ZA,1570574235,94,-33.59,26.89,62.01,4.0
41,Zaozerne,100,UA,1570574235,66,51.37,23.94,48.0,17.23
42,Amahai,75,ID,1570574236,96,-3.31,129.0,79.0,1.01
43,Norman Wells,40,CA,1570574236,51,65.28,-126.83,37.4,4.7
44,Khalkhal,0,IR,1570574236,50,37.62,48.53,47.17,2.43
45,Waitati,100,NZ,1570574237,86,-45.75,170.57,54.0,3.0
46,Mecca,74,SA,1570574237,33,21.43,39.83,89.73,6.34
47,Yulara,0,AU,1570574237,25,-25.24,130.99,62.6,11.41
48,Punta Arenas,75,CL,1570574238,45,-53.16,-70.91,46.4,38.03
49,Nanortalik,97,GL,1570574238,87,60.14,-45.24,40.98,9.99
50,Hilo,1,US,1570574239,51,19.71,-155.08,86.0,8.05
51,Dikson,67,RU,1570573983,91,73.51,80.55,20.47,11.65
52,Komsomolskiy,100,RU,1570574091,86,67.55,63.78,34.61,6.49
53,Sri Aman,100,MY,1570574240,100,1.24,111.46,73.4,6.93
54,Thanjavur,40,IN,1570574240,88,10.79,79.14,80.6,2.36
55,Vaini,100,IN,1570574240,91,15.34,74.49,74.43,2.55
56,Carauari,66,BR,1570574241,83,-4.88,-66.9,77.43,2.61
57,Kodiak,1,US,1570574241,40,39.95,-94.76,71.6,14.99
58,Airai,0,TL,1570574241,42,-8.93,125.41,83.38,3.02
59,Tiksi,100,RU,1570574242,84,71.64,128.87,24.57,11.7
60,Pisco,40,PE,1570574242,30,-13.71,-76.2,71.6,12.75
61,Klaksvik,45,FO,1570574243,93,62.23,-6.59,50.0,18.34
62,Camacha,75,PT,1570574243,73,33.08,-16.33,73.4,10.29
63,Mahibadhoo,29,MV,1570574244,71,3.78,72.97,82.22,6.04
64,Novyy Urengoy,100,RU,1570574244,83,66.08,76.63,32.02,12.93
65,Candelaria,100,PH,1570574245,88,13.93,121.42,77.0,1.99
66,Bonavista,100,CA,1570574245,82,48.65,-53.11,55.0,14.0
67,Nikolskoye,90,RU,1570574245,86,59.7,30.79,39.99,4.47
68,Aksu,0,KZ,1570574246,81,52.04,76.93,42.8,4.94
69,Linhares,8,BR,1570574246,89,-19.38,-40.06,72.57,3.67
70,Khandyga,98,RU,1570574247,61,62.65,135.58,27.07,12.39
71,Kourou,0,GF,1570574247,78,5.16,-52.64,80.6,8.05
72,Albany,75,US,1570574247,59,42.65,-73.75,60.8,6.93
73,Mikkeli,75,FI,1570574248,100,61.69,27.27,28.0,3.87
74,Qaanaaq,94,GL,1570574248,67,77.48,-69.36,18.61,12.72
75,Ocampo,1,MX,1570574248,51,27.32,-102.4,71.87,9.26
76,Broome,11,GB,1570574249,87,52.47,1.45,52.0,6.93
77,Cidreira,50,BR,1570574249,87,-30.17,-50.22,63.13,5.01
78,Port Macquarie,0,AU,1570574012,44,-31.43,152.91,66.99,14.99
79,Bredasdorp,65,ZA,1570574250,72,-34.53,20.04,59.0,8.05
80,Plymouth,20,GB,1570573999,81,50.37,-4.14,55.99,9.17
81,Fortuna,0,ES,1570574250,82,38.18,-1.13,70.0,2.24
82,Kudahuvadhoo,94,MV,1570574251,79,2.67,72.89,81.36,14.11
83,Arraial do Cabo,75,BR,1570574251,94,-22.97,-42.02,75.2,4.7
84,Brae,67,GB,1570574252,93,60.4,-1.35,51.8,13.87
85,Smoky Lake,99,CA,1570574252,65,54.11,-112.47,32.0,5.99
86,Avarua,100,CK,1570574253,57,-21.21,-159.78,75.2,9.17
87,Gao,19,ML,1570574253,29,16.28,-0.04,92.89,11.36
88,Madimba,75,CM,1570574253,100,4.42,9.93,75.2,1.12
89,Princeton,1,US,1570574254,28,38.36,-87.57,73.4,6.37
90,Maltahohe,0,NA,1570574254,12,-24.83,16.98,62.98,10.93
91,Lebu,75,ET,1570574254,82,8.96,38.73,57.2,6.93
92,Inongo,80,CD,1570574255,83,-1.93,18.29,72.77,2.59
93,Tahara,20,JP,1570574255,59,34.64,137.18,66.99,29.97
94,Celestun,100,MX,1570574256,79,20.87,-90.4,82.35,15.73
95,Hofn,68,IS,1570574256,96,64.25,-15.21,37.03,13.78
96,Nome,40,US,1570574256,54,30.04,-94.42,84.0,3.36
97,Busselton,100,AU,1570574257,61,-33.64,115.35,57.99,14.09
98,Korem,0,ET,1570574258,79,12.51,39.52,54.63,2.95
99,Santa Rosalia,0,IT,1570574178,72,38.07,13.27,70.0,5.82
100,Sarmellek,32,HU,1570574258,76,46.71,17.17,50.0,8.05
101,Gboko,98,NG,1570574259,93,7.32,9.0,73.12,4.94
102,Bathsheba,20,BB,1570574259,69,13.22,-59.52,82.4,16.11
103,Aswan,21,EG,1570574260,24,24.09,32.9,91.4,8.05
104,Seymchan,21,RU,1570574260,79,62.93,152.39,9.61,4.29
105,Mahebourg,40,MU,1570574089,78,-20.41,57.7,71.6,14.99
106,Hasaki,40,JP,1570574261,63,35.73,140.83,66.2,9.17
107,East London,0,ZA,1570574016,85,-33.02,27.91,57.53,8.7
108,Taoudenni,0,ML,1570574261,9,22.68,-3.98,85.69,10.46
109,Manono,81,CD,1570574262,76,-7.3,27.4,72.94,1.86
110,Mazamari,83,PE,1570574262,95,-11.33,-74.53,40.82,2.13
111,Torbay,90,CA,1570574263,93,47.66,-52.73,55.99,17.22
112,Sabang,100,PH,1570574263,88,13.8,121.11,77.0,1.99
113,West Wendover,1,US,1570574263,33,40.74,-114.07,62.6,5.82
114,Guiyang,75,CN,1570574264,88,26.58,106.71,66.2,8.95
115,Port Lincoln,100,AU,1570574264,66,-34.72,135.86,54.04,10.6
116,Vitim,62,RU,1570574265,93,59.44,112.57,15.69,2.28
117,Srednekolymsk,93,RU,1570574265,83,67.46,153.71,15.84,5.89
118,Ilulissat,5,GL,1570574265,58,69.22,-51.1,28.4,1.12
119,Grande Prairie,75,CA,1570574265,68,55.17,-118.79,28.4,20.8
120,Nyanguge,40,TZ,1570574266,78,-2.54,33.2,75.2,9.17
121,Laguna,75,BZ,1570574266,70,16.17,-88.94,87.8,6.93
122,Ewa Beach,75,US,1570574267,54,21.32,-158.01,84.2,9.17
123,Kamaishi,55,JP,1570574267,74,39.28,141.86,49.0,24.79
124,Padang,90,ID,1570574267,94,-0.92,100.36,68.72,2.1
125,Jamestown,30,AU,1570574268,39,-33.21,138.6,56.65,6.13
126,Mayo,75,CA,1570574268,63,63.59,-135.9,28.4,3.36
127,Saskylakh,79,RU,1570574268,95,71.97,114.09,14.74,7.45
128,Kidal,35,ML,1570574269,33,18.44,1.41,87.39,13.26
129,Borogontsy,100,RU,1570574269,80,62.67,131.17,28.89,7.47
130,Berdigestyakh,100,RU,1570574269,93,62.1,126.7,29.1,9.58
131,Ribeira Grande,0,PT,1570574270,67,38.52,-28.7,61.34,9.28
132,Itarema,28,BR,1570574270,76,-2.92,-39.92,76.82,12.83
133,Sitka,30,US,1570574270,41,37.17,-99.65,77.0,21.0
134,Upernavik,73,GL,1570574271,54,72.79,-56.15,30.37,9.17
135,Omsukchan,42,RU,1570574271,74,62.53,155.8,12.54,2.01
136,Benguela,99,AO,1570574271,90,-12.58,13.4,71.75,9.62
137,Lavrentiya,100,RU,1570574272,99,65.58,-170.99,33.46,1.88
138,Kieta,51,PG,1570574272,71,-6.22,155.63,83.39,1.9
139,Nagato,20,JP,1570574272,72,34.35,131.14,68.0,4.7
140,Praia da Vitoria,40,PT,1570574273,63,38.73,-27.07,66.2,12.23
141,White Rock,75,CA,1570574065,87,49.02,-122.8,53.01,6.93
142,Provideniya,75,RU,1570574007,86,64.42,-173.23,41.0,4.47
143,Gat,100,SN,1570574273,79,14.69,-16.54,84.2,4.7
144,Najran,0,SA,1570574274,25,17.54,44.22,75.2,5.82
145,Sumbe,100,AO,1570574274,88,-11.2,13.84,73.27,3.87
146,Mount Isa,0,AU,1570574274,18,-20.73,139.49,71.6,13.87
147,Nassau,75,AT,1570574275,93,46.81,15.34,50.0,2.24
148,Rochefort,62,BE,1570574275,87,50.16,5.22,54.0,17.22
149,Mar del Plata,88,AR,1570574111,35,-46.43,-67.52,54.76,12.66
150,Havre-Saint-Pierre,1,CA,1570574275,72,50.23,-63.6,48.2,5.82
151,Kavieng,0,PG,1570574276,74,-2.57,150.8,84.63,12.83
152,Tasiilaq,100,GL,1570574276,75,65.61,-37.64,41.0,16.11
153,Thompson,90,CA,1570574255,69,55.74,-97.86,39.2,13.87
154,Virginia Beach,90,US,1570573991,100,36.85,-75.98,68.0,17.22
155,Vila Velha,31,BR,1570574277,69,-3.71,-38.6,80.6,14.99
156,Agadir,75,MA,1570574277,82,30.42,-9.58,64.4,4.7
157,Leningradskiy,100,RU,1570574083,95,69.38,178.42,32.6,19.1
158,Chapais,1,CA,1570574279,61,49.78,-74.86,46.4,4.7
159,Skelleftea,97,SE,1570574279,96,64.75,20.95,33.8,5.82
160,Nikolayevskaya,90,RU,1570574280,93,43.22,44.21,50.0,5.5
161,Touros,40,BR,1570574280,78,-5.2,-35.46,77.0,10.29
162,Saint George,90,GR,1570574280,93,39.45,22.34,59.0,0.89
163,Arlit,48,NE,1570574280,36,18.74,7.39,88.81,23.04
164,Hamilton,20,CA,1570574161,76,43.26,-79.87,60.01,9.17
165,San Ignacio,99,PE,1570574281,97,-5.15,-79.0,61.87,2.21
166,Tazovskiy,100,RU,1570574281,85,67.47,78.7,32.63,10.13
167,Tevaitoa,91,PF,1570574282,85,-16.78,-151.5,75.43,23.0
168,Berlevag,75,NO,1570574282,76,70.86,29.09,39.2,12.75
169,Bulgan,11,MN,1570574282,63,48.81,103.53,38.34,4.9
170,Lata,1,IN,1570574283,86,30.78,78.62,28.4,1.74
171,Ketchikan,1,US,1570574283,31,55.34,-131.65,48.2,17.22
172,Dunedin,100,NZ,1570574283,86,-45.87,170.5,54.0,3.0
173,Hailun,0,CN,1570574284,53,47.46,126.97,50.11,11.72
174,The Valley,20,AI,1570574258,69,18.22,-63.06,84.2,10.29
175,Hay River,75,CA,1570574284,59,60.82,-115.79,35.6,21.92
176,Nantucket,75,US,1570574285,87,41.28,-70.1,60.01,17.22
177,Alofi,63,NU,1570574285,76,-19.06,-169.92,75.26,20.04
178,Fare,87,PF,1570574285,85,-16.7,-151.02,76.69,21.26
179,Chuy,2,UY,1570574286,78,-33.69,-53.46,56.68,2.21
180,Husavik,25,CA,1570574286,49,50.56,-96.99,64.99,5.99
181,Bubaque,98,GW,1570574286,80,11.28,-15.83,79.34,8.47
182,Baruun-Urt,0,MN,1570574287,48,46.68,113.28,45.01,11.51
183,Carroll,0,AU,1570574287,43,-30.99,150.44,55.99,5.82
184,Valleyview,100,CA,1570574012,48,55.07,-117.28,30.02,9.1
185,Yuanping,93,CN,1570574288,52,38.72,112.71,49.12,2.59
186,Ponta do Sol,100,BR,1570574288,96,-20.63,-46.0,65.32,3.62
187,Richards Bay,35,ZA,1570574164,79,-28.77,32.06,69.34,4.88
188,Linxia,100,CN,1570574289,90,35.6,103.21,44.03,2.86
189,Georgetown,20,GY,1570574289,78,6.8,-58.16,82.4,9.17
190,Rawson,100,AR,1570574289,43,-43.3,-65.11,51.23,5.77
191,Punghina,0,RO,1570574289,84,44.28,22.94,45.0,4.47
192,Longyearbyen,75,NO,1570574290,87,78.22,15.63,33.8,2.24
193,Oranjemund,0,ZA,1570574290,88,-28.55,16.43,55.63,11.25
194,Dayal Bagh,5,IN,1570574290,88,27.22,78.02,69.8,3.89
195,Alyangula,53,AU,1570574291,73,-13.85,136.42,77.0,1.12
196,Souillac,0,FR,1570574020,100,45.6,-0.6,57.2,2.24
197,Narsaq,100,GL,1570574292,97,60.91,-46.05,39.2,7.26
198,Carutapera,90,BR,1570574292,76,-1.2,-46.02,78.95,8.39
199,Sidi Ali,0,DZ,1570574292,61,36.1,0.42,73.33,4.54
200,Muriti,40,TZ,1570574292,78,-1.99,32.93,75.2,9.17
201,Trelew,100,AR,1570574293,43,-43.25,-65.31,51.22,5.78
202,Butaritari,33,KI,1570574293,69,3.07,172.79,85.28,13.33
203,Roseburg,90,US,1570574293,51,43.22,-123.34,60.8,10.29
204,Omboue,100,GA,1570574294,88,-1.57,9.26,77.67,13.85
205,Pak Phanang,100,TH,1570574294,85,8.35,100.2,78.05,2.39
206,Codrington,75,AU,1570574294,52,-28.95,153.24,66.2,10.29
207,Severo-Kurilsk,100,RU,1570574295,94,50.68,156.12,42.89,23.19
208,Soyo,94,AO,1570574296,85,-6.13,12.37,76.77,8.37
209,Ust-Kulom,9,RU,1570574296,88,61.69,53.69,31.0,7.87
210,Saint Anthony,1,US,1570574296,20,43.97,-111.68,66.2,20.8
211,Sept-Iles,75,CA,1570574296,66,50.2,-66.38,51.8,6.93
212,Muroto,36,JP,1570574297,42,33.37,134.14,66.2,17.22
213,Pevek,100,RU,1570574064,81,69.7,170.27,30.24,15.01
214,Cordoba,2,AR,1570574297,40,-27.78,-67.24,62.35,6.8
215,Pontes e Lacerda,40,BR,1570574298,65,-15.23,-59.33,76.9,4.21
216,Cherskiy,98,RU,1570574298,94,68.75,161.3,21.24,7.09
217,Harper,1,US,1570574299,32,30.3,-99.24,86.0,9.35
218,Dzhankoy,100,UA,1570574299,53,45.71,34.39,43.88,4.43
219,Ugoofaaru,81,MV,1570574299,74,5.67,73.0,82.6,10.53
220,Chapleau,20,CA,1570574300,51,47.85,-83.4,59.0,6.93
221,Saldanha,26,PT,1570574300,79,41.42,-6.55,60.95,4.07
222,Neiafu,75,TO,1570574300,74,-18.65,-173.98,78.8,5.82
223,Castro,0,CL,1570574027,76,-42.48,-73.76,50.0,6.93
224,Qaqortoq,100,GL,1570574301,95,60.72,-46.03,39.2,7.14
225,Kapuskasing,20,CA,1570574301,48,49.42,-82.43,60.8,16.11
226,Luderitz,0,NA,1570574302,67,-26.65,15.16,60.8,20.8
227,Palmer,20,AU,1570574302,50,-34.85,139.16,57.99,8.05
228,Mulchen,0,CL,1570574302,49,-37.72,-72.23,68.0,6.93
229,Mahdasht,0,IR,1570574302,32,35.73,50.81,68.0,4.7
230,Dudinka,2,RU,1570574303,85,69.41,86.18,19.4,8.95
231,Barrow,30,AR,1570574303,54,-38.31,-60.23,48.89,5.68
232,Samfya,0,ZM,1570574304,41,-11.37,29.56,72.37,7.55
233,Sabla,31,NG,1570574304,71,12.75,4.71,77.7,10.12
234,San Andres,99,PH,1570574304,76,13.32,122.68,81.82,6.8
235,Axim,83,GH,1570574305,97,4.87,-2.24,73.17,4.26
236,La Ronge,90,CA,1570574305,59,55.1,-105.3,33.8,18.34
237,Esperance,100,AU,1570574305,76,-33.86,121.89,53.6,17.22
238,Campoverde,75,EC,1570574306,62,-0.91,-78.62,62.6,16.11
239,Pangnirtung,20,CA,1570574306,95,66.15,-65.72,35.6,0.96
240,Bandarbeyla,31,SO,1570574306,84,9.49,50.81,75.8,6.26
241,Klyuchevskiy,100,RU,1570574307,94,53.53,119.45,30.42,9.16
242,Ende,21,ID,1570574307,72,-8.84,121.65,77.95,3.04
243,Havelock,90,US,1570574097,88,34.88,-76.9,71.6,16.11
244,Makakilo City,90,US,1570574308,74,21.35,-158.09,84.2,3.36
245,Dakar,0,SN,1570574308,83,14.69,-17.45,82.4,8.48
246,Mbini,40,GQ,1570574309,100,1.58,9.62,77.0,6.13
247,Fairbanks,90,US,1570574309,96,64.84,-147.72,37.0,5.82
248,Esmeralda,100,CL,1570574309,16,-34.33,-70.9,77.0,8.05
249,Bismarck,1,US,1570574310,46,46.81,-100.78,75.2,11.41
250,Beyneu,34,KZ,1570574310,51,45.32,55.19,61.13,10.02
251,Atar,78,MR,1570574310,15,20.52,-13.05,91.69,12.28
252,Rosarito,40,CO,1570574310,68,4.91,-75.23,77.0,8.05
253,Surt,56,LY,1570574311,71,31.21,16.59,75.98,15.03
254,Coquimbo,98,CL,1570574311,82,-29.95,-71.34,57.2,14.99
255,Raudeberg,99,NO,1570574312,71,61.99,5.14,50.0,12.75
256,Port Hardy,20,CA,1570574312,50,50.7,-127.42,51.8,14.99
257,Pskov,100,RU,1570574312,86,57.82,28.33,41.0,6.71
258,Katsuura,40,JP,1570574312,55,33.93,134.5,66.2,13.87
259,Benghazi,35,LY,1570574313,43,32.12,20.07,79.13,33.84
260,Port Blair,100,IN,1570574313,71,11.67,92.75,83.25,5.5
261,Guerrero Negro,0,MX,1570574313,81,27.97,-114.04,69.93,14.63
262,Hithadhoo,45,MV,1570574314,73,-0.6,73.08,81.83,5.97
263,San Cristobal,100,HN,1570574314,85,14.68,-86.92,70.6,5.3
264,Victoria,75,BN,1570574315,94,5.28,115.24,77.0,2.24
265,Stratonion,63,GR,1570574315,77,40.51,23.82,60.01,3.0
266,San-Pedro,71,CI,1570574315,88,4.75,-6.64,76.8,14.52
267,Kaitangata,100,NZ,1570574315,91,-46.28,169.85,51.01,3.0
268,Zhanaozen,34,KZ,1570574316,44,43.35,52.85,60.93,6.69
269,Nemuro,0,JP,1570574316,65,43.32,145.57,56.54,39.41
270,Takoradi,98,GH,1570574316,90,4.89,-1.75,76.42,11.06
271,Gravdal,100,NO,1570574317,93,59.79,5.78,48.2,16.11
272,Karaton,40,ID,1570574317,88,-6.34,106.1,77.0,6.93
273,Concepcion,51,CO,1570574317,91,9.56,-73.66,77.89,4.03
274,Kiunga,94,PG,1570574318,79,-6.12,141.3,79.94,3.6
275,Madras,40,US,1570574318,33,44.63,-121.13,59.0,19.46
276,Kedainiai,90,LT,1570574319,100,55.29,23.97,41.0,9.17
277,Cabo San Lucas,5,MX,1570574319,41,22.89,-109.91,91.4,11.41
278,Flin Flon,90,CA,1570574319,60,54.77,-101.88,39.2,14.99
279,Gunnedah,0,AU,1570574320,43,-30.98,150.25,55.99,5.82
280,Alice Town,98,BS,1570574320,78,25.72,-79.3,81.25,15.64
281,Japura,50,ID,1570574321,93,-0.42,102.29,74.12,1.4
282,Dukat,1,AL,1570574321,76,40.25,19.57,66.0,5.2
283,Pathein,86,MM,1570574321,90,16.78,94.73,75.88,3.22
284,Bjerringbro,83,DK,1570574322,93,56.38,9.66,50.0,8.05
285,Batagay-Alyta,82,RU,1570574322,82,67.8,130.41,7.47,3.31
286,Skegness,0,GB,1570574323,81,53.14,0.34,51.01,13.87
287,Marrakesh,0,MA,1570574056,38,31.63,-7.99,75.2,3.36
288,Hambantota,40,LK,1570574323,100,6.12,81.12,75.2,1.12
289,Okhotsk,100,RU,1570574323,98,59.36,143.24,31.48,9.51
290,Victoria,75,BN,1570574064,94,5.28,115.24,77.0,2.24
291,Gladstone,5,AU,1570574324,26,-23.84,151.26,82.0,4.7
292,Adrar,0,DZ,1570574324,27,27.87,-0.29,75.2,14.99
293,Namwala,10,ZM,1570574325,47,-15.75,26.45,68.56,4.32
294,Natal,40,BR,1570574268,78,-5.81,-35.21,80.6,10.29
295,Eregli,31,TR,1570574325,60,37.51,34.05,57.83,3.29
296,Visby,98,SE,1570574326,87,57.64,18.3,50.0,5.82
297,Constitucion,40,MX,1570574326,22,23.99,-104.67,78.01,3.36
298,Sao Filipe,6,CV,1570574326,86,14.9,-24.5,74.48,10.29
299,Pacific Grove,1,US,1570574327,56,36.62,-121.92,88.0,8.05
300,Kholm,5,AF,1570574327,15,36.69,67.7,73.4,9.17
301,Vikulovo,0,RU,1570574327,88,55.07,40.96,30.82,5.53
302,Vestmannaeyjar,95,IS,1570574328,83,63.44,-20.27,49.0,2.68
303,Beloha,0,MG,1570574328,54,-25.17,45.06,75.76,6.51
304,Port Elizabeth,1,US,1570574328,55,39.31,-74.98,64.99,12.75
305,Harwich,1,US,1570574329,82,41.69,-70.08,60.01,13.87
306,Elko,1,US,1570574127,15,40.83,-115.76,75.2,23.04
307,Ixtapa,40,MX,1570574329,79,20.71,-105.21,90.0,10.29
308,Byron Bay,75,AU,1570574330,45,-28.65,153.62,73.0,13.87
309,Rabaul,18,PG,1570574330,75,-4.2,152.17,83.41,10.76
310,Ambilobe,3,MG,1570574330,70,-13.19,49.05,74.61,13.57
311,Taksimo,100,RU,1570574331,62,56.36,114.84,26.01,6.23
312,Saint-Francois,90,FR,1570574331,87,46.42,3.91,60.8,6.93
313,Hami,64,CN,1570574331,21,42.84,93.51,56.38,4.79
314,Fort Nelson,40,CA,1570574332,44,58.81,-122.69,37.4,17.22
315,Panzhihua,0,CN,1570574332,91,26.59,101.72,58.28,1.45
316,Erzin,50,TR,1570574332,82,36.95,36.2,73.99,4.7
317,Barstow,1,US,1570574126,26,31.46,-103.39,91.4,8.05
318,Chipinge,0,ZW,1570574333,74,-20.19,32.62,70.74,5.66
319,Kachug,4,RU,1570574334,80,53.96,105.89,26.5,9.42
320,Quatre Cocos,40,MU,1570574334,78,-20.21,57.76,71.6,14.99
321,Ahipara,40,NZ,1570574335,83,-35.17,173.16,72.0,7.23
322,Talnakh,0,RU,1570574335,85,69.49,88.39,19.4,8.95
323,Iki-Burul,100,RU,1570574335,93,45.82,44.65,50.0,6.71
324,Sioux Lookout,40,CA,1570574336,40,50.1,-91.92,68.0,12.75
325,Nouadhibou,0,MR,1570574336,61,20.93,-17.03,77.0,14.99
326,Khatanga,57,RU,1570574336,93,71.98,102.47,16.45,4.13
327,Flagstaff,1,US,1570574337,14,35.2,-111.65,80.6,11.41
328,Gaoua,89,BF,1570574337,95,10.33,-3.18,71.48,7.58
329,Baoqing,0,CN,1570574338,49,46.32,132.2,49.01,10.95
330,Mbalmayo,20,CM,1570574338,94,3.52,11.5,71.6,4.7
331,Ishigaki,40,JP,1570574338,83,24.34,124.16,77.0,12.75
332,Choix,0,MX,1570574339,61,26.71,-108.33,83.77,3.4
333,Faya,34,SA,1570574339,34,18.39,42.45,68.0,5.82
334,Iturama,100,BR,1570574339,78,-19.73,-50.2,71.94,7.74
335,Pochutla,75,MX,1570574340,70,15.74,-96.47,86.0,17.22
336,Mersing,15,MY,1570574340,75,2.43,103.84,81.09,5.9
337,Lompoc,1,US,1570574341,68,34.64,-120.46,80.01,13.87
338,Amurzet,0,CN,1570574342,56,47.69,131.09,44.71,10.11
339,Alcanena,0,PT,1570574343,82,39.46,-8.67,64.0,13.87
340,Ochsenfurt,90,DE,1570574343,100,49.67,10.07,57.99,9.17
341,Isangel,20,VU,1570574344,69,-19.55,169.27,78.8,5.82
342,Garoua Boulai,100,CM,1570574344,96,5.88,14.55,66.15,1.92
343,Dicabisagan,84,PH,1570574345,89,17.08,122.42,76.97,2.64
344,Belyye Stolby,44,RU,1570574346,74,55.33,37.86,37.0,6.71
345,Palmonostora,0,HU,1570574346,65,46.62,19.95,50.0,2.24
346,Lamar,1,US,1570574347,10,38.09,-102.62,86.0,9.17
347,Sokolovyy,100,RU,1570574347,91,51.57,45.83,44.01,5.99
348,Rio Gallegos,0,AR,1570574347,34,-51.62,-69.22,48.2,20.8
349,Alice Springs,0,AU,1570574348,27,-23.7,133.88,62.6,8.05
350,Tongliao,0,CN,1570574348,24,43.61,122.27,56.9,14.5
351,Birjand,0,IR,1570574349,26,32.86,59.22,57.2,6.93
352,San Quintin,0,PH,1570574349,76,17.54,120.52,78.51,3.71
353,Ca Mau,83,VN,1570574349,85,9.18,105.15,79.18,1.99
354,Adre,100,TD,1570574350,81,13.47,22.2,69.62,4.32
355,Cairns,20,AU,1570574350,78,-16.92,145.77,82.99,10.29
356,Quelimane,0,MZ,1570574350,83,-17.88,36.89,78.8,13.87
357,Labuhan,22,ID,1570574351,62,-2.54,115.51,81.52,0.62
358,Shenjiamen,79,CN,1570574351,72,29.96,122.3,70.2,13.86
359,Rawalpindi,0,PK,1570574351,88,33.6,73.06,66.0,8.05
360,Vanavara,16,RU,1570574352,67,60.35,102.28,21.83,8.97
361,Karatuzskoye,56,RU,1570574352,82,53.61,92.87,36.59,6.73
362,Cap Malheureux,40,MU,1570574352,78,-19.98,57.61,71.6,14.99
363,Maragogi,38,BR,1570574353,93,-9.01,-35.22,70.24,4.14
364,Naze,75,NG,1570574353,88,5.43,7.07,75.2,2.17
365,Leshukonskoye,100,RU,1570574353,96,64.9,45.76,33.13,14.77
366,Bereda,22,ES,1570574354,100,43.27,-7.54,59.0,3.36
367,Guiratinga,86,BR,1570574354,81,-16.35,-53.76,74.9,2.33
368,Mollendo,83,PE,1570574355,78,-17.03,-72.02,60.8,2.46
369,Daru,77,PG,1570574355,82,-9.07,143.21,77.42,8.16
370,Kasempa,92,ZM,1570574356,61,-13.46,25.83,65.61,6.04
371,Asyut,0,EG,1570574356,42,27.18,31.19,80.6,11.41
372,Gazanjyk,0,TM,1570574356,45,39.24,55.52,66.53,3.2
373,Akcakoca,12,TR,1570574357,92,41.09,31.12,49.46,2.79
374,Coronel Fabriciano,0,BR,1570574357,38,-19.52,-42.63,87.8,5.82
375,Watertown,1,US,1570574357,52,44.9,-97.12,70.0,14.99
376,Rongcheng,2,CN,1570574358,43,37.16,122.42,58.57,3.48
377,Sobolevo,100,RU,1570574358,86,54.43,31.9,36.81,11.41
378,Plouzane,0,FR,1570574305,87,48.38,-4.62,57.2,10.29
379,Sorong,95,ID,1570574359,87,-0.86,131.25,79.99,5.73
380,San Patricio,0,PY,1570574360,68,-26.98,-56.83,66.45,5.8
381,Kalmunai,41,LK,1570574360,72,7.42,81.82,82.22,3.94
382,Zhigansk,47,RU,1570574360,89,66.77,123.37,16.0,10.25
383,Chokurdakh,80,RU,1570574361,96,70.62,147.9,9.58,2.95
384,Lodja,98,CD,1570574361,97,-3.52,23.6,68.29,1.83
385,Egvekinot,59,RU,1570574361,95,66.32,-179.17,25.99,10.11
386,Ocos,75,GT,1570574362,100,14.51,-92.19,86.0,4.7
387,Thunder Bay,75,CA,1570574121,45,48.41,-89.26,62.6,5.82
388,Buchanan,75,LR,1570574363,94,5.88,-10.05,77.0,14.85
389,Pundaguitan,65,PH,1570574363,78,6.37,126.17,82.06,9.08
390,Marzuq,0,YE,1570574363,57,14.4,46.47,71.02,4.47
391,Moree,33,AU,1570574364,30,-29.46,149.84,61.0,18.34
392,Maceio,20,BR,1570574364,88,-9.67,-35.74,73.4,6.93
393,Falun,97,SE,1570574365,96,60.61,15.63,36.0,1.66
394,Grenaa,90,DK,1570574365,93,56.42,10.88,50.0,3.36
395,Leh,96,IN,1570574365,46,34.16,77.58,28.04,1.43
396,Kaohsiung,75,TW,1570574366,83,22.62,120.31,79.0,1.12
397,Kaitong,0,CN,1570574367,26,44.81,123.15,57.42,14.87
398,Gravelbourg,100,CA,1570574367,88,49.88,-106.56,33.21,18.54
399,Te Anau,100,NZ,1570574368,97,-45.41,167.72,47.12,3.42
400,Thanh Hoa,40,VN,1570574368,100,10.21,106.33,77.0,1.12
401,Iquique,40,CL,1570574369,72,-20.22,-70.14,60.8,11.41
402,Gandorhun,100,SL,1570574369,99,8.44,-10.86,69.91,0.4
403,Coihaique,40,CL,1570574174,57,-45.58,-72.07,50.0,8.05
404,Hirara,75,JP,1570574369,78,24.8,125.28,78.8,14.99
405,Hastings,33,NZ,1570574370,54,-39.64,176.84,70.36,1.7
406,Roald,75,NO,1570574370,70,62.58,6.12,48.2,10.29
407,Changli,100,CN,1570574370,93,30.54,105.42,59.74,4.32
408,Jeremie,35,HT,1570574371,90,18.65,-74.12,72.97,1.58
409,Nagorsk,4,RU,1570574372,88,59.32,50.8,29.92,7.0
410,Korba,58,IN,1570574372,91,22.35,82.71,67.91,4.27
411,Kruisfontein,17,ZA,1570574093,74,-34.0,24.73,60.01,10.22
412,Yarmouth,90,CA,1570574373,93,43.84,-66.12,54.0,3.36
413,Ostrovnoy,100,RU,1570574373,88,68.05,39.51,33.26,11.03
414,Tabuk,48,PH,1570574374,78,17.41,121.44,69.39,5.53
415,Caldas Novas,91,BR,1570574374,94,-17.75,-48.62,68.04,5.26
416,Chanika,0,MW,1570574374,58,-12.93,34.19,69.25,1.1
417,Humaita,75,AR,1570574374,24,-24.93,-65.37,82.4,10.29
418,Araouane,0,ML,1570574375,9,18.9,-3.53,91.38,9.4
419,Kutum,46,SD,1570574375,62,14.2,24.66,73.46,5.1
420,Ivankiv,100,UA,1570574376,48,50.93,29.9,44.6,11.18
421,Udalguri,43,IN,1570574376,68,26.75,92.1,59.87,3.58
422,Geraldton,40,CA,1570574376,48,49.72,-86.95,60.8,12.75
423,Medea,20,DZ,1570574377,82,36.27,2.77,62.6,5.82
424,Ambon,35,FR,1570574377,87,47.55,-2.56,60.01,10.29
425,Avera,1,US,1570574377,61,33.19,-82.53,86.0,6.93
426,Mujiayingzi,74,CN,1570574378,33,42.12,118.78,48.42,10.87
427,Haines Junction,92,CA,1570574378,56,60.75,-137.51,25.97,4.07
428,Rocha,0,UY,1570574378,68,-34.48,-54.34,52.97,4.2
429,Westport,1,US,1570574090,63,41.14,-73.36,63.0,10.29
430,Bolitoc,17,PH,1570574379,64,15.74,119.88,81.54,1.52
431,Ucluelet,20,CA,1570574337,50,48.94,-125.55,57.0,17.22
432,Vera Cruz,20,BR,1570574380,74,-12.96,-38.61,78.8,14.99
433,Rupert,1,US,1570574380,22,42.62,-113.68,68.0,3.36
434,Mount Gambier,90,AU,1570574381,87,-37.83,140.78,48.2,4.7
435,Vestmanna,86,FO,1570574381,93,62.16,-7.17,50.0,18.34
436,Palana,100,RU,1570574382,99,59.08,159.95,38.86,4.69
437,Vallenar,15,CL,1570574382,61,-28.58,-70.76,53.67,2.33
438,Salalah,40,OM,1570574382,83,17.01,54.1,80.6,4.7
439,Lagoa,0,PT,1570574383,88,37.14,-8.45,72.0,5.82
440,Iqaluit,90,CA,1570574383,93,63.75,-68.52,41.0,2.24
441,Shu,33,KZ,1570574384,80,43.6,73.76,54.72,5.82
442,Igrim,90,RU,1570574384,95,63.19,64.42,37.67,4.63
443,San Carlos de Bariloche,75,AR,1570574384,49,-41.13,-71.31,48.2,24.16
444,Radhanpur,0,IN,1570574385,54,23.83,71.61,79.99,5.69
445,Arti,78,RU,1570574385,90,56.43,58.53,36.58,1.61
446,San Policarpo,100,PH,1570574385,83,12.18,125.51,80.41,4.85
447,Calceta,75,EC,1570574386,78,-0.85,-80.16,75.2,13.87
448,Teresina,0,BR,1570574362,30,-5.09,-42.81,95.0,2.24
449,Vardo,20,US,1570574386,55,39.62,-77.74,63.0,10.29
450,Dubbo,0,AU,1570574387,54,-32.25,148.6,53.6,9.17
451,Meulaboh,100,ID,1570574387,80,4.14,96.13,78.88,6.26
452,Samana,88,EC,1570574387,74,0.12,-76.97,80.6,3.36
453,Talaya,0,RU,1570574388,96,55.79,84.89,32.0,4.47
454,Hervey Bay,29,AU,1570574388,57,-25.3,152.85,80.01,12.75
455,Kizukuri,75,JP,1570574388,58,40.81,140.39,59.0,21.92
456,Ler,0,NO,1570574388,74,63.2,10.3,42.8,11.41
457,Zaysan,6,KZ,1570574389,35,47.47,84.87,55.54,3.64
458,Pandan,99,PH,1570574389,80,11.72,122.09,81.83,11.7
459,Tondano,20,ID,1570574389,83,1.3,124.91,75.2,2.24
460,Kamina,99,CD,1570574390,84,-8.74,25.0,65.16,3.74
461,Joensuu,75,FI,1570574390,97,62.6,29.76,34.0,5.82
462,Dumbraveni,0,RO,1570574390,74,46.23,24.57,37.4,6.93
463,Siocon,90,PH,1570574391,75,11.03,124.04,83.3,2.53
464,Sandnessjoen,100,NO,1570574391,62,66.02,12.63,44.6,19.46
465,Acapulco,90,MX,1570574094,83,16.86,-99.88,84.2,9.17
466,Dingle,99,PH,1570574392,77,11.0,122.67,81.14,3.11
467,Pueblo Nuevo,0,AR,1570574392,22,-32.93,-68.73,77.0,4.7
468,Itabirito,75,BR,1570574393,39,-20.25,-43.8,82.4,10.29
469,Kindu,100,CD,1570574393,99,-2.95,25.92,68.43,1.96
470,Hole Narsipur,100,IN,1570574393,97,12.78,76.24,66.35,10.89
471,Micomeseng,95,GQ,1570574394,99,2.15,10.62,68.76,2.26
472,Jieshi,9,CN,1570574394,78,22.82,115.83,80.01,8.1
473,Moranbah,0,AU,1570574395,20,-22.0,148.04,84.02,21.07
474,Cartagena,0,ES,1570574395,82,37.63,-1.0,70.0,3.36
475,Klyavlino,100,RU,1570574395,92,54.26,52.03,38.61,5.79
476,Nuuk,20,GL,1570574396,69,64.17,-51.74,35.6,4.7
477,Taiyuan,79,CN,1570574396,81,37.86,112.56,48.2,2.24
478,Rome,0,IT,1570574144,72,41.89,12.48,62.01,5.82
479,Zhoucheng,58,CN,1570574397,93,31.35,119.33,59.0,2.24
480,Bouna,66,CI,1570574397,96,9.27,-3.0,68.9,4.9
481,Seybaplaya,75,MX,1570574398,74,19.65,-90.67,86.0,6.93
482,Ous,100,RU,1570574398,84,60.91,61.52,38.61,2.19
483,Ashqelon,70,IL,1570574398,9,31.67,34.57,75.0,2.75
484,Minab,0,IR,1570574399,74,27.15,57.07,82.4,1.12
485,Flinders,40,AU,1570574399,54,-34.58,150.85,60.01,14.99
486,Grindavik,75,IS,1570574400,81,63.84,-22.43,51.8,5.82
487,Tarko-Sale,100,RU,1570574400,94,64.92,77.78,30.99,13.42
488,Praxedis Guerrero,1,MX,1570574402,47,31.37,-106.02,86.0,3.36
489,Galveston,1,US,1570574403,32,40.58,-86.19,73.4,3.36
490,Aanekoski,90,FI,1570574403,88,62.6,25.73,32.0,2.24
491,Pitimbu,75,BR,1570574404,83,-7.47,-34.81,77.0,9.17
492,Christchurch,100,NZ,1570574230,72,-43.53,172.64,69.01,6.93
493,Lewisville,1,US,1570574229,29,33.05,-96.99,80.01,5.82
494,Caravelas,0,BR,1570574404,89,-17.73,-39.27,71.49,7.48
495,Manicore,86,BR,1570574405,85,-5.81,-61.3,78.1,2.86
496,Tomatlan,6,MX,1570574405,85,19.93,-105.25,83.68,4.14
497,Abonnema,75,NG,1570574406,88,4.71,6.79,75.2,1.66
498,Kupang,41,ID,1570574406,65,-10.16,123.6,76.53,1.42
499,Les Cayes,0,HT,1570574406,77,18.19,-73.75,83.72,11.81
500,Kavaratti,52,IN,1570574407,71,10.57,72.64,82.24,2.95
501,Portland,1,US,1570574112,62,43.66,-70.25,57.99,3.67
502,Ajdabiya,46,LY,1570574408,20,30.75,20.22,79.03,17.5
503,Kurchum,0,KZ,1570574409,45,48.57,83.65,53.8,4.43
504,Taree,13,AU,1570574409,44,-31.91,152.46,64.0,14.99
505,High Level,40,CA,1570574410,51,58.52,-117.13,35.6,14.99
506,Muli,100,CN,1570574410,83,28.08,109.56,59.54,3.36
507,Sydney,40,AU,1570574410,67,-33.85,151.22,62.01,18.34
508,Beroroha,0,MG,1570574411,56,-21.68,45.17,73.26,10.85
509,Timbiras,65,BR,1570574411,63,-4.26,-43.94,81.47,8.1
510,Lebedinyy,100,RU,1570574411,93,58.52,125.52,20.68,4.86
511,Sibolga,83,ID,1570574402,82,1.74,98.78,79.34,10.27
512,Muravlenko,100,RU,1570574412,79,63.79,74.5,36.14,16.24
513,Khasan,0,RU,1570574412,36,42.43,130.64,54.61,5.37
514,Ibra,0,OM,1570574412,74,22.69,58.55,72.74,3.76
515,Prince Rupert,1,CA,1570574413,46,54.32,-130.32,50.0,6.93
516,Le Port,17,FR,1570574413,69,42.87,1.37,64.0,5.99
517,Havoysund,40,NO,1570574413,78,71.0,24.66,35.6,12.75
518,Pedasi,77,PA,1570574414,85,7.53,-80.03,79.84,12.17
519,Noumea,90,NC,1570574266,65,-22.28,166.46,77.0,2.24
520,Gizo,46,IL,1570574414,85,31.8,34.94,75.0,1.69
521,Bagotville,75,AU,1570574415,45,-28.98,153.42,66.2,13.87
522,Creston,20,CA,1570574415,32,49.1,-116.52,51.8,5.82
523,Riyadh,4,SA,1570574415,42,24.63,46.72,80.6,2.24
524,Altar,0,MX,1570574416,30,30.72,-111.84,90.0,4.0
525,Inhambane,78,MZ,1570574416,91,-23.87,35.38,75.07,10.12
526,Kendari,9,ID,1570574416,64,-3.99,122.52,82.89,0.47
527,Turukhansk,93,RU,1570574417,85,65.8,87.96,31.61,3.0
528,Santiago del Estero,0,AR,1570574417,33,-27.8,-64.26,77.06,10.11
529,Altamira,100,BR,1570574417,65,-3.2,-52.21,80.78,2.64
530,Colares,29,PT,1570574418,77,38.8,-9.45,66.2,10.29
531,Tiarei,75,PF,1570574418,65,-17.53,-149.33,82.4,6.93
532,Kamakwie,99,SL,1570574418,98,9.5,-12.24,71.86,3.42
533,Clyde River,20,CA,1570574419,100,70.47,-68.59,21.2,4.7
534,Sidney,1,US,1570574419,5,41.14,-102.98,82.4,5.82
535,Usogorsk,100,RU,1570574419,92,63.43,48.71,32.31,14.61
536,Kaeo,26,NZ,1570574420,82,-35.1,173.78,72.0,11.39
537,Stonewall,75,CA,1570574420,59,50.13,-97.33,64.99,19.46
538,Emerald,10,AU,1570574421,20,-23.53,148.16,73.99,18.34
539,Sovetskiy,97,RU,1570574421,94,56.76,48.47,33.75,2.21
540,Moratuwa,20,LK,1570574421,94,6.77,79.88,77.0,2.24
541,Kotelnikovo,94,RU,1570574422,78,47.63,43.14,47.59,18.95
542,Erandique,90,HN,1570574422,94,14.24,-88.47,65.5,1.07
543,Jati,0,PK,1570574422,68,24.35,68.27,79.38,7.92
544,Port Augusta,0,AU,1570574423,71,-32.49,137.76,53.6,5.82
545,Dickinson,1,US,1570574423,37,46.88,-102.79,75.2,6.93
546,Puno,0,PE,1570574424,10,-15.84,-70.03,57.2,12.75
547,Sinazongwe,0,ZM,1570574424,36,-17.26,27.46,73.89,3.83
548,Rancho Palos Verdes,20,US,1570574424,69,33.75,-118.37,86.0,13.87
549,Saint-Augustin,20,CA,1570574425,54,45.63,-73.98,59.0,3.36
550,Namatanai,29,PG,1570574425,73,-3.66,152.44,82.42,9.28
551,Kichera,20,RU,1570574426,79,55.93,110.1,17.86,8.43
552,Upata,100,VE,1570574426,92,8.02,-62.41,72.88,4.29
553,Alencon,0,FR,1570574426,93,48.43,0.08,53.6,4.7
554,Bud,99,NO,1570574427,93,62.91,6.91,48.2,5.82
555,Nhulunbuy,94,AU,1570574427,78,-12.18,136.78,77.0,5.82
556,Eyl,0,SO,1570574427,86,7.98,49.82,79.11,6.34
557,Muhos,75,FI,1570574428,95,64.81,26.0,32.0,4.7
558,Barcelona,20,ES,1570574428,88,41.38,2.18,71.01,6.93
559,Bone,40,DE,1570574429,93,51.97,12.14,55.0,10.29
560,Jacareacanga,75,BR,1570574344,70,-6.22,-57.76,86.0,2.89
561,Mikhaylovskoye,95,RU,1570574429,85,43.1,44.64,48.1,5.23
562,Maraba,0,BR,1570574355,70,-5.35,-49.1,86.0,3.36
563,Boo,100,NG,1570574430,95,7.44,8.9,72.32,2.73
564,Karratha,22,AU,1570574430,14,-20.74,116.85,93.44,8.41
565,Maputo,75,MZ,1570574431,83,-25.97,32.57,71.6,12.75
566,Dwarka,0,IN,1570574431,78,28.58,77.04,84.99,3.74
567,West Fargo,1,US,1570574431,28,46.88,-96.9,71.6,13.87
568,Gimbi,73,ET,1570574432,95,8.81,37.79,49.48,6.82
569,Lichuan,88,CN,1570574432,81,30.3,108.94,60.75,5.79
